[
  {
    "lon": "41.99131",
    "lat": "21.424855",
    "name": "Национална галерија на Република Северна Македонија-Мала станица",
    "city": "Скопје",
    "address": "Адреса: Јордан Мијалков (Железничка) 18",
    "website": "http://www.nationalgallery.mk",
    "working_hours": "Работно време: Вто - Нед од 10:00 до 21:00",
    "image": "https://nationalgallery.mk/wp-content/uploads/2021/07/Mala-stanica-823x365.jpg"
  },
  {
    "lon": "41.9806272",
    "lat": "21.4407704",
    "name": "Импресија",
    "city": "Скопје",
    "address": "Адреса: Тодор Паница 7 лок.6",
    "website": "нема",
    "working_hours": "Работно време: Пон - Пет од 12:00 до 20:00 • Саб од 10:00 до 15:00",
    "image": "https://scontent.fskp4-1.fna.fbcdn.net/v/t39.30808-6/329367448_1687996938282991_5786018763047538599_n.jpg?_nc_cat=103&ccb=1-7&_nc_sid=dd5e9f&_nc_ohc=5ztA3cFifp4AX-1Ehtx&_nc_ht=scontent.fskp4-1.fna&oh=00_AfDScDjEmoh7T1Eo588p2LMnUuwxuztV5SJDuYqcGkNQVg&oe=65BBD83F"
  },
  {
    "lon": "41.9933363966",
    "lat": "21.4354205131",
    "name": "Културно Информативен Центар (КИЦ)",
    "city": "Скопје",
    "address": "Адреса: Филип Втори Македонски (Моша Пијаде) б.б.",
    "website": "http://www.kic.mk/",
    "working_hours": "Работно време: Пон - Пет од 08:00 до 20:00",
    "image": "https://lh3.googleusercontent.com/p/AF1QipNbMv94RK2mcoZ4SrpHzh6N2uKX59YzWQF0qv8W=s1360-w1360-h1020"
  },
  {
    "lon": "41.9884974843",
    "lat": "21.4515655595",
    "name": "Касвер-Ц",
    "city": "Скопје",
    "address": "Адреса: бул.К.Ј.Питу, ТЦ Скопјанка 19 лок.53",
    "website": "http://www.kasver.mk",
    "working_hours": "Работно време: Пон - Пет од 09:00 до 17:00 • Саб од 09:00 до 13:30",
    "image": "https://scontent.fskp4-2.fna.fbcdn.net/v/t1.6435-9/65809489_2433086086926842_2350982917926158336_n.jpg?_nc_cat=101&ccb=1-7&_nc_sid=dd63ad&_nc_ohc=rrgz9785u9UAX-dCzT0&_nc_ht=scontent.fskp4-2.fna&oh=00_AfDERW6EKfELgCNuBGhNL4J02Z-rFN2tZWEw80xcyMWMTw&oe=65DDE78C"
  },
  {
    "lon": "41.9932824696",
    "lat": "21.4251890331",
    "name": "Галерија Мартин",
    "city": "Скопје",
    "address": "Адреса: Св.Кирил и Методиј (М.Х.Јасмин) 52-б лок.5",
    "website": "http://www.gallerymartin.com.mk",
    "working_hours": "нема",
    "image": "https://artonline.mk/wp-content/uploads/2023/05/plein-air.2.jpg"
  },
  {
    "lon": "41.1143908933",
    "lat": "20.7999853665",
    "name": "Букефал",
    "city": "Охрид",
    "address": "Адреса: Св.Климент Охридски 54",
    "website": "http://www.bukefal.com.mk",
    "working_hours": "Работно време: Пон - Нед од 10:00 до 22:00",
    "image": "https://lh3.googleusercontent.com/p/AF1QipMu-iPksSuViLOs-lAqYaHTmXVD5RBgrpnZYlFV=s1360-w1360-h1020"
  },
  {
    "lon": "41.998139",
    "lat": "21.424253",
    "name": "Рипида",
    "city": "Скопје",
    "address": "Адреса: бул.Партизански Одреди, Порта Буњаковец 19",
    "website": "нема",
    "working_hours": "нема",
    "image": "https://lh3.googleusercontent.com/p/AF1QipMmglVipkVOo636amfvTJ9NALeYBeD6M40yQlRF=s1360-w1360-h1020"
  },
  {
    "lon": "41.9968029612",
    "lat": "21.4255928994",
    "name": "Грал Галерија",
    "city": "Скопје",
    "address": "Адреса: бул.Св.Климент Охридски 45 лок.6",
    "website": "http://www.gral.com.mk",
    "working_hours": "Работно време: Пон - Пет од 09:00 до 15:00",
    "image": "https://scontent.fskp4-1.fna.fbcdn.net/v/t39.30808-6/304915408_930054321244658_1318809746440074634_n.jpg?_nc_cat=105&ccb=1-7&_nc_sid=783fdb&_nc_ohc=F2Yxbvzaag0AX9C6xHm&_nc_ht=scontent.fskp4-1.fna&oh=00_AfAbUv7cp6HrDbvb0DxXPgLc4H9Pmur1WpqwCuP1QB1sYQ&oe=65BB3770"
  },
  {
    "lon": "41.1096776732",
    "lat": "20.8052292538",
    "name": "Ателиер Анастас Дудан",
    "city": "Охрид",
    "address": "Адреса: Јане Сандански 14",
    "website": "http://www.anastasdudan.com.mk",
    "working_hours": "Работно време: Пон - Нед од 11:00 до 20:00",
    "image": "https://www.anastasdudan.com.mk/upload/slide/0.jpg"
  },
  {
    "lon": "41.989724",
    "lat": "21.460936",
    "name": "Саздовски",
    "city": "Скопје",
    "address": "Адреса: Народен Фронт 5",
    "website": "нема",
    "working_hours": "нема",
    "image": "https://scontent.fskp4-1.fna.fbcdn.net/v/t1.6435-9/34048688_2035119753481997_5336098326674669568_n.jpg?stp=c0.19.1440.752a_dst-jpg_s843x403&_nc_cat=103&ccb=1-7&_nc_sid=300f58&_nc_ohc=DdHeTYhkoAQAX-gctaT&_nc_ht=scontent.fskp4-1.fna&oh=00_AfCUSDmOUS3c8mN_qy7M77QDCvDZvh-4hi0Pn_vKGDfmRQ&oe=65DDF8CC"
  },
  {
    "lon": "41.996061",
    "lat": "21.42879",
    "name": "Ел Греко",
    "city": "Скопје",
    "address": "Адреса: Максим Горки 17",
    "website": "нема",
    "working_hours": "Работно време: Пон - Пет од 10:30 до 21:00",
    "image": "https://scontent.fskp4-1.fna.fbcdn.net/v/t39.30808-6/278134221_397917382336976_549871120681417680_n.jpg?_nc_cat=102&ccb=1-7&_nc_sid=efb6e6&_nc_ohc=eVcZA72z5aEAX9y1YDk&_nc_ht=scontent.fskp4-1.fna&oh=00_AfC-nuqeQBuGg122AziRl5R_Ky3GZ0m2THn_heSDgfhsKA&oe=65BAE58E"
  },
  {
    "lon": "41.988505",
    "lat": "21.449978",
    "name": "Сликарско студио Качев",
    "city": "Скопје",
    "address": "Адреса: бул.К.Ј.Питу 28/3, поткровје",
    "website": "http://www.konstantinkacev.com",
    "working_hours": "нема",
    "image": "https://scontent.fskp4-2.fna.fbcdn.net/v/t1.6435-9/55759997_10156390795572224_3437115009610547200_n.jpg?_nc_cat=101&ccb=1-7&_nc_sid=4dc865&_nc_ohc=Zf-aSVJCjHIAX_IrjUd&_nc_ht=scontent.fskp4-2.fna&oh=00_AfB6fxRIy5t3mBvuyv_of1sTTspbX-7e6mKbcsPmJxPLLw&oe=65DDF263"
  },
  {
    "lon": "41.1161394212",
    "lat": "20.800112529",
    "name": "Коппер-арт",
    "city": "Охрид",
    "address": "Адреса: Гоце Делчев 4",
    "website": "нема",
    "working_hours": "нема",
    "image": "https://rzkohrid.mk/wp-content/gallery/d0bad0bed0bfd0bfd0b5d180-d0b0d180d182/0-02-05-019060ae781a06181ece3c62c4cab1ae6462a157d919bb3f57bbb8247f4dec2a_ba2b0c4f.jpg"
  },
  {
    "lon": "41.99664",
    "lat": "21.428949",
    "name": "Остен",
    "city": "Скопје",
    "address": "Адреса: 8-ма Ударна Бригада 2",
    "website": "http://www.osten.com.mk",
    "working_hours": "Работно време: Пон - Пет од 09:00 до 17:00",
    "image":"https://lh3.googleusercontent.com/p/AF1QipPZNn5VVm-20sJMHpReQee1dBw8gAjBxM2p-3GY=s1360-w1360-h1020"

  },
  {
    "lon": "41.9947700092",
    "lat": "21.4213029915",
    "name": "Арте галерија",
    "city": "Скопје",
    "address": "Адреса: М.Т.Гологанов (Иво Лола Рибар) 49",
    "website": "нема",
    "working_hours": "Работно време: Пон - Пет од 10:00 до 20:00 • Саб од 10:00 до 15:00",
    "image": "https://dynamic-media-cdn.tripadvisor.com/media/photo-o/17/ee/36/c9/arte-galerija.jpg?w=1200&h=-1&s=1"
  },
  {
    "lon": "42.0107875596",
    "lat": "21.4058127187",
    "name": "Галерија Мартиноски",
    "city": "Скопје",
    "address": "Адреса: бул.8-ми Септември (Октомвриска револуција) 15",
    "website": "нема",
    "working_hours": "Работно време: Пон - Пет од 12:00 до 19:00",
    "image": "https://scontent.fskp4-2.fna.fbcdn.net/v/t1.18169-9/17991121_810707389105952_5840610056936638171_n.jpg?_nc_cat=101&ccb=1-7&_nc_sid=4dc865&_nc_ohc=Kg8nwPFL4uQAX96bmbY&_nc_ht=scontent.fskp4-2.fna&oh=00_AfC-u9UdK-veV2cY4mcN5MJyep7_-ZP1fSV9IjG4Kqigng&oe=65DDF11C"
  },
  {
    "lon": "41.3694803334",
    "lat": "21.2492339188",
    "name": "Галерија на икони",
    "city": "Крушево",
    "address": "Адреса: Никола Ѓурковиќ б.б.",
    "website": "нема",
    "working_hours": "нема",
    "image": "https://muzejohrid.mk/wp-content/uploads/2023/01/Galerija-na-ikoni-Ohrid-1024x373.jpg"
  },
  {
    "lon": "41.3695205913",
    "lat": "21.2511597449",
    "name": "Никола Мартиноски",
    "city": "Крушево",
    "address": "Адреса: Нико Доага б.б.",
    "website": "нема",
    "working_hours": "Работно време: Пон - Нед од 09:00 до 16:00",
    "image": "https://krusevokrusevo.weebly.com/uploads/8/1/3/9/8139351/601960969.jpg?304"
  },
  {
    "lon": "41.9850350109",
    "lat": "21.4657992125",
    "name": "Арт Студио Реализам",
    "city": "Скопје",
    "address": "Адреса: бул.Јане Сандански 82",
    "website": "нема",
    "working_hours": "нема",
    "image": "https://scontent.fskp4-1.fna.fbcdn.net/v/t1.6435-9/116302958_860620461144158_6106732226067847310_n.jpg?_nc_cat=105&ccb=1-7&_nc_sid=be3454&_nc_ohc=w1ZPvd4dgvwAX8iueQ-&_nc_ht=scontent.fskp4-1.fna&oh=00_AfDwxSOB8mWtoyurK_1C-MCAiR_z7tYEmPilwaobgH9smg&oe=65DDEF7B"
  },
  {
    "lon": "41.0285682659",
    "lat": "21.3388613317",
    "name": "Галерија и Концепт Стор Солак",
    "city": "Битола",
    "address": "Адреса: Димитар Илиевски Мурато(Борис Кидриќ) 24",
    "website": "нема",
    "working_hours": "нема",
    "image": "https://emagazin.mk/wp-content/uploads/2022/04/Solak-5.jpg"
  },
  {
    "lon": "нема",
    "lat": "нема",
    "name": "Арт Шаби Чик",
    "city": "Кочани",
    "address": "Адреса: Маршал Тито 6",
    "website": "нема",
    "working_hours": "нема",
    "image": "https://scontent.fskp4-1.fna.fbcdn.net/v/t39.30808-6/314695266_568734801878181_5003422183287542044_n.jpg?_nc_cat=103&ccb=1-7&_nc_sid=783fdb&_nc_ohc=q5AemBa-yNMAX9poZoG&_nc_ht=scontent.fskp4-1.fna&oh=00_AfBtoZD4dm3qwYxI00wu25bQe693PEDVu4g6vy-NSxi9pA&oe=65BBFD2D"
  },
  {
    "lon": "нема",
    "lat": "нема",
    "name": "Анарт",
    "city": "Скопје",
    "address": "Адреса: М.Т.Гологанов (Иво Лола Рибар) 70-б",
    "website": "http://anamitevska.com/contact/",
    "working_hours": "нема",
    "image": "https://lh3.googleusercontent.com/p/AF1QipPAZqU0U1gO2k_iBCHD8mpSReQtwrwvagXYWmM_=s1360-w1360-h1020"
  },
  {
    "lon": "41.9224370691",
    "lat": "22.4463748707",
    "name": "Одоната",
    "city": "Кочани",
    "address": "Адреса: Стојан Момчилов, с Оризари 11-а",
    "website": "нема",
    "working_hours": "нема",
    "image": "https://scontent.fskp4-1.fna.fbcdn.net/v/t39.30808-6/339076185_773112450991765_3614572935157181900_n.jpg?_nc_cat=102&ccb=1-7&_nc_sid=3635dc&_nc_ohc=YnoCyAoW9BcAX_Ny_5O&_nc_ht=scontent.fskp4-1.fna&oh=00_AfDP1nGBVdcVG7v0X9H0Vo2CBNxwK7bvcz99X9_vU6ZMHw&oe=65BB508F"
  }
]
