[
  {
    "lat": "42.0062442315",
    "lon": "20.9674207726",
    "name": "Национална Установа Уметничка Галерија",
    "address": "Адреса: Илинденска б.б.",
    "working_hours": "нема"
  },
  {
    "lat": "41.99131",
    "lon": "21.424855",
    "name": "Национална галерија на Република Северна Македонија-Мала станица",
    "address": "Адреса: Јордан Мијалков (Железничка) 18",
    "working_hours": "Работно време: Вто - Нед од 10:00 до 21:00"
  },
  {
    "lat": "41.9850330172",
    "lon": "21.4657106995",
    "name": "Кодекс ВМ",
    "address": "Адреса: бул.Јане Сандански, ТЦ Бисер 82, приземје лок.48",
    "working_hours": "Работно време: Пон - Пет од 10:00 до 21:00 • Саб од 09:00 до 20:00"
  },
  {
    "lat": "41.9806272",
    "lon": "21.4407704",
    "name": "Импресија",
    "address": "Адреса: Тодор Паница 7 лок.6",
    "working_hours": "Работно време: Пон - Пет од 12:00 до 20:00 • Саб од 10:00 до 15:00"
  },
  {
    "lat": "41.9933363966",
    "lon": "21.4354205131",
    "name": "Културно Информативен Центар (КИЦ)",
    "address": "Адреса: Филип Втори Македонски (Моша Пијаде) б.б.",
    "working_hours": "Работно време: Пон - Пет од 08:00 до 20:00"
  },
  {
    "lat": "41.9946494595",
    "lon": "21.4190600344",
    "name": "Камала",
    "address": "Адреса: М.Т.Гологанов (Иво Лола Рибар) 44",
    "working_hours": "Работно време: Пон - Пет од 09:00 до 18:00"
  },
  {
    "lat": "41.1137296173",
    "lon": "20.7983636293",
    "name": "Арт Емануела",
    "address": "Адреса: Климентов Универзитет 72",
    "working_hours": "Работно време: Пон - Саб од 10:00 до 22:00 • Нед од 10:00 до 18:00"
  },
  {
    "lat": "41.997493",
    "lon": "21.426841",
    "name": "Леонардо",
    "address": "Адреса: бул.Партизански Одреди 9",
    "working_hours": "Работно време: Пон - Пет од 11:00 до 19:00 • Саб од 11:00 до 15:00"
  },
  {
    "lat": "42.008289715",
    "lon": "21.3649964333",
    "name": "Хоме Галери",
    "address": "Адреса: ТЦ Ѓорче Петров лок.8 лам.3",
    "working_hours": "Работно време: Пон - Саб од 09:00 до 16:00"
  },
  {
    "lat": "41.9884974843",
    "lon": "21.4515655595",
    "name": "Касвер-Ц",
    "address": "Адреса: бул.К.Ј.Питу, ТЦ Скопјанка 19 лок.53",
    "working_hours": "Работно време: Пон - Пет од 09:00 до 17:00 • Саб од 09:00 до 13:30"
  },
  {
    "lat": "41.993345",
    "lon": "21.431587",
    "name": "ДЛУМ-друштво на ликовните уметници на Македонија",
    "address": "Адреса: Македонија 12",
    "working_hours": "Работно време: Пон - Пет од 10:00 до 17:00"
  },
  {
    "lat": "41.1171085703",
    "lon": "20.8023736687",
    "name": "Сибијан",
    "address": "Адреса: бул.Туристичка 52 лам.2/3",
    "working_hours": "Работно време: Пон - Пет од 10:00 до 20:30"
  },
  {
    "lat": "41.9975287722",
    "lon": "21.3975747155",
    "name": "Галерија РА",
    "address": "Адреса: М.Т.Гологанов (Иво Лола Рибар) 94/2",
    "working_hours": "нема"
  },
  {
    "lat": "41.9841537724",
    "lon": "21.4328241348",
    "name": "Ателје Марјак",
    "address": "Адреса: Томе Арсовски 22",
    "working_hours": "Работно време: Пон - Пет од 12:00 до 19:00"
  },
  {
    "lat": "41.9932824696",
    "lon": "21.4251890331",
    "name": "Галерија Мартин",
    "address": "Адреса: Св.Кирил и Методиј (М.Х.Јасмин) 52-б лок.5",
    "working_hours": "нема"
  },
  {
    "lat": "41.993931",
    "lon": "21.415544",
    "name": "АнаГор",
    "address": "Адреса: Народен Фронт 21",
    "working_hours": "Работно време: Пон - Пет од 09:00 до 20:00 • Саб од 09:00 до 14:00"
  },
  {
    "lat": "41.0318195256",
    "lon": "21.3374720054",
    "name": "Св.Кирил и Методиј-Мал битолски Монмартр",
    "address": "Адреса: Марјан Божиновски (Далматинска) 18",
    "working_hours": "Работно време: Пон - Нед од 07:00 до 15:00"
  },
  {
    "lat": "41.9986177666",
    "lon": "21.43575978",
    "name": "Национална Галерија на Република Северна Македонија-Даут Пашин Амам",
    "address": "Адреса: Црвена Скопска Општина 5",
    "working_hours": "нема"
  },
  {
    "lat": "41.1143908933",
    "lon": "20.7999853665",
    "name": "Букефал",
    "address": "Адреса: Св.Климент Охридски 54",
    "working_hours": "Работно време: Пон - Нед од 10:00 до 22:00"
  },
  {
    "lat": "42.0010617537",
    "lon": "21.4373079361",
    "name": "Национална Галерија на Република Северна Македонија-Чифте Амам",
    "address": "Адреса: Битпазарска, Стара Чаршија б.б.",
    "working_hours": "нема"
  },
  {
    "lat": "41.994620261",
    "lon": "21.4298627288",
    "name": "Ексима",
    "address": "Адреса: Димитија Чуповски (Вељко Влаховиќ) 10/13",
    "working_hours": "Работно време: Пон - Пет од 08:00 до 16:00"
  },
  {
    "lat": "41.996061",
    "lon": "21.42879",
    "name": "Ел Греко",
    "address": "Адреса: Максим Горки 17",
    "working_hours": "Работно време: Пон - Пет од 10:30 до 21:00"
  },
  {
    "lat": "41.999836",
    "lon": "21.497733",
    "name": "Ан-Ју",
    "address": "Адреса: Петре Филиповски Гарката 29",
    "working_hours": "Работно време: Пон - Саб од 10:00 до 20:00"
  },
  {
    "lat": "42.0035753285",
    "lon": "21.3977033889",
    "name": "Моне",
    "address": "Адреса: бул.Партизански Одреди 66-а",
    "working_hours": "Работно време: Пон - Пет од 10:00 до 21:00 • Саб од 10:00 до 14:00"
  },
  {
    "lat": "41.988505",
    "lon": "21.449978",
    "name": "Сликарско студио Качев",
    "address": "Адреса: бул.К.Ј.Питу 28/3, поткровје",
    "working_hours": "нема"
  },
  {
    "lat": "41.99664",
    "lon": "21.428949",
    "name": "Остен",
    "address": "Адреса: 8-ма Ударна Бригада 2",
    "working_hours": "Работно време: Пон - Пет од 09:00 до 17:00"
  },
  {
    "lat": "41.994056356",
    "lon": "21.4288172001",
    "name": "Матица Ексклузив",
    "address": "Адреса: Ѓуро Стругар 13-б",
    "working_hours": "Работно време: Пон - Пет од 08:00 до 20:00 • Саб од 09:00 до 16:00"
  },
  {
    "lat": "41.992688",
    "lon": "21.428809",
    "name": "Банели",
    "address": "Адреса: Даме Груев 5 лок.3",
    "working_hours": "Работно време: Пон - Пет од 10:00 до 18:00 • Саб од 10:00 до 14:00"
  },
  {
    "lat": "41.9947700092",
    "lon": "21.4213029915",
    "name": "Арте галерија",
    "address": "Адреса: М.Т.Гологанов (Иво Лола Рибар) 49",
    "working_hours": "Работно време: Пон - Пет од 10:00 до 20:00 • Саб од 10:00 до 15:00"
  },
  {
    "lat": "41.9849974478",
    "lon": "21.4330617958",
    "name": "Рустикана",
    "address": "Адреса: Фредерик Шопен 28 лок.3",
    "working_hours": "Работно време: Пон - Пет од 11:00 до 18:00 • Саб од 10:00 до 15:00"
  },
  {
    "lat": "41.9947238424",
    "lon": "21.4212584496",
    "name": "Аурис арт",
    "address": "Адреса: М.Т.Гологанов (Иво Лола Рибар) 47",
    "working_hours": "нема"
  },
  {
    "lat": "42.0107875596",
    "lon": "21.4058127187",
    "name": "Галерија Мартиноски",
    "address": "Адреса: бул.8-ми Септември (Октомвриска револуција) 15",
    "working_hours": "Работно време: Пон - Пет од 12:00 до 19:00"
  },
  {
    "lat": "41.1137929",
    "lon": "20.8091715",
    "name": "Фантаст",
    "address": "Адреса: бул.Јане Сандански, ТЦ Бисер 82 лок.40",
    "working_hours": "Работно време: Пон - Пет од 17:00 до 20:00"
  },
  {
    "lat": "41.9960218732",
    "lon": "21.4262972647",
    "name": "Арт Си",
    "address": "Адреса: Максим Горки 31-а",
    "working_hours": "нема"
  },
  {
    "lat": "41.9850395038",
    "lon": "21.4657259594",
    "name": "Реализам",
    "address": "Адреса: бул.Јане Сандански, ТЦ Бисер 82-1/41",
    "working_hours": "нема"
  },
  {
    "lat": "41.9850350109",
    "lon": "21.4657992125",
    "name": "Арт Студио Реализам",
    "address": "Адреса: бул.Јане Сандански 82",
    "working_hours": "нема"
  },
  {
    "lat": "41.9870828653",
    "lon": "21.4485488707",
    "name": "Ателје-Тони Шулајковски",
    "address": "Адреса: Анастас Митрев 27-1/6",
    "working_hours": "нема"
  },
  {
    "lat": "42.0059692191",
    "lon": "21.3816667584",
    "name": "Магарт студио",
    "address": "Адреса: Никола Парапунов 5-М/6",
    "working_hours": "нема"
  },
  {
    "lat": "42.0035461742",
    "lon": "21.3981163502",
    "name": "Долап",
    "address": "Адреса: Петар Поп Арсов 18",
    "working_hours": "нема"
  },
  {
    "lat": "41.9850352511",
    "lon": "21.4656970473",
    "name": "Ателје Танева",
    "address": "Адреса: ТЦ Бисер 1 кат",
    "working_hours": "нема"
  },
  {
    "lat": "41.9972998256",
    "lon": "21.4254779915",
    "name": "Сити Галери",
    "address": "Адреса: Бул.Св.Климент Охридски 45 локал 4",
    "working_hours": "нема"
  },
  {
    "lat": "нема",
    "lon": "нема",
    "name": "Анарт",
    "address": "Адреса: М.Т.Гологанов (Иво Лола Рибар) 70-б",
    "working_hours": "нема"
  },
  {
    "lat": "41.1137296173",
    "lon": "20.7983636293",
    "name": "Арт Емануела",
    "address": "Адреса: Климентов Универзитет 72",
    "working_hours": "Работно време: Пон - Саб од 10:00 до 22:00 • Нед од 10:00 до 18:00"
  },
  {
    "lat": "41.1171085703",
    "lon": "20.8023736687",
    "name": "Сибијан",
    "address": "Адреса: бул.Туристичка 52 лам.2/3",
    "working_hours": "Работно време: Пон - Пет од 10:00 до 20:30"
  },
  {
    "lat": "41.0318195256",
    "lon": "21.3374720054",
    "name": "Св.Кирил и Методиј-Мал битолски Монмартр",
    "address": "Адреса: Марјан Божиновски (Далматинска) 18",
    "working_hours": "Работно време: Пон - Нед од 07:00 до 15:00"
  },
  {
    "lat": "41.1143908933",
    "lon": "20.7999853665",
    "name": "Букефал",
    "address": "Адреса: Св.Климент Охридски 54",
    "working_hours": "Работно време: Пон - Нед од 10:00 до 22:00"
  },
  {
    "lat": "41.0380439173",
    "lon": "21.356048584",
    "name": "Бизарт",
    "address": "Адреса: Индустриски пат б.б.",
    "working_hours": "нема"
  },
  {
    "lat": "41.1096776732",
    "lon": "20.8052292538",
    "name": "Ателиер Анастас Дудан",
    "address": "Адреса: Јане Сандански 14",
    "working_hours": "Работно време: Пон - Нед од 11:00 до 20:00"
  },
  {
    "lat": "41.1764372",
    "lon": "20.6785829",
    "name": "Букефал",
    "address": "Адреса: Кеј Борис Кидрич 36",
    "working_hours": "Работно време: Пон - Пет од 09:00 до 20:00 • Саб од 09:00 до 16:00"
  },
  {
    "lat": "41.0257767416",
    "lon": "21.3368485676",
    "name": "Галерија Дуо",
    "address": "Адреса: Марјан Божиновски 12",
    "working_hours": "Работно време: Пон - Саб од 09:00 до 22:00"
  },
  {
    "lat": "41.1161394212",
    "lon": "20.800112529",
    "name": "Коппер-арт",
    "address": "Адреса: Гоце Делчев 4",
    "working_hours": "нема"
  },
  {
    "lat": "41.9205674151",
    "lon": "22.4120219124",
    "name": "БИСЕР-94",
    "address": "Адреса: Браќа Ставреви 27",
    "working_hours": "нема"
  },
  {
    "lat": "41.0253739209",
    "lon": "21.3367474079",
    "name": "Антика",
    "address": "Адреса: Широк Сокак (Маршал Тито) 131",
    "working_hours": "Работно време: Пон - Саб од 10:00 до 20:00"
  },
  {
    "lat": "41.9181925673",
    "lon": "22.4118908754",
    "name": "Бисер-94",
    "address": "Адреса: Бел Камен 154/2",
    "working_hours": "Работно време: Пон - Саб од 09:00 до 17:00"
  },
  {
    "lat": "41.0317459661",
    "lon": "21.3351182514",
    "name": "Стерија Арт",
    "address": "Адреса: Безистен б.б.",
    "working_hours": "Работно време: Пон - Саб од 08:00 до 19:00"
  },
  {
    "lat": "41.1209912288",
    "lon": "20.8135357081",
    "name": "М и М Дизајн 2011",
    "address": "Адреса: Питу Гули 49-а",
    "working_hours": "нема"
  },
  {
    "lat": "41.7184350979",
    "lon": "21.7791692946",
    "name": "Ликовен салон",
    "address": "Адреса: Алексо Демниевски б.б.",
    "working_hours": "Работно време: Пон - Пет од 08:00 до 16:00"
  },
  {
    "lat": "41.3694803334",
    "lon": "21.2492339188",
    "name": "Галерија на икони",
    "address": "Адреса: Никола Ѓурковиќ б.б.",
    "working_hours": "нема"
  },
  {
    "lat": "41.3695205913",
    "lon": "21.2511597449",
    "name": "Никола Мартиноски",
    "address": "Адреса: Нико Доага б.б.",
    "working_hours": "Работно време: Пон - Нед од 09:00 до 16:00"
  },
  {
    "lat": "41.1126984548",
    "lon": "20.7984238322",
    "name": "Арт Галерија Срна",
    "address": "Адреса: Цар Самоил 8",
    "working_hours": "нема"
  },
  {
    "lat": "41.0285682659",
    "lon": "21.3388613317",
    "name": "Галерија и Концепт Стор Солак",
    "address": "Адреса: Димитар Илиевски Мурато(Борис Кидриќ) 24",
    "working_hours": "нема"
  },
  {
    "lat": "нема",
    "lon": "нема",
    "name": "Арт Шаби Чик",
    "address": "Адреса: Маршал Тито 6",
    "working_hours": "нема"
  },
  {
    "lat": "41.9992308394",
    "lon": "21.4354661107",
    "name": "Модена",
    "address": "Адреса: бул.Гоце Делчев б.б.",
    "working_hours": "нема"
  },
  {
    "lat": "41.9224370691",
    "lon": "22.4463748707",
    "name": "Одоната",
    "address": "Адреса: Стојан Момчилов, с Оризари 11-а",
    "working_hours": "нема"
  }
]